{
"type": "FeatureCollection",
"name": "bus_stops",
"crs": { "type": "name", "properties": { "name": "urn:ogc:def:crs:OGC:1.3:CRS84" } },
"features": [
{ "type": "Feature", "properties": { "osm_id": "316835656", "osm_type": "node", "osm_version": "41", "osm_timestamp": "2023-09-17T00:03:31Z", "osm_uid": "461130", "osm_user": "Fizzie-DWG", "osm_changeset": "141362330", "highway": "bus_stop", "description": null, "name": "Мост Октябрьской железной дороги", "title": null, "routes": { }, "peak_frequency": null, "id": "n316835656", "image": null }, "geometry": { "type": "Point", "coordinates": [ 37.5566768, 55.843149 ] } },
{ "type": "Feature", "properties": { "osm_id": "608550677", "osm_type": "node", "osm_version": "36", "osm_timestamp": "2023-09-17T00:03:31Z", "osm_uid": "461130", "osm_user": "Fizzie-DWG", "osm_changeset": "141362330", "highway": "bus_stop", "description": null, "name": "Улица Лихоборские Бугры", "title": null, "routes": { }, "peak_frequency": null, "id": "n608550677", "image": null }, "geometry": { "type": "Point", "coordinates": [ 37.5475065, 55.8400413 ] } },
{ "type": "Feature", "properties": { "osm_id": "608550679", "osm_type": "node", "osm_version": "36", "osm_timestamp": "2025-05-13T19:48:00Z", "osm_uid": "5642897", "osm_user": "Travieso", "osm_changeset": "166221062", "highway": "bus_stop", "description": null, "name": "Улица Лихоборские Бугры", "title": null, "routes": { }, "peak_frequency": null, "id": "n608550679", "image": null }, "geometry": { "type": "Point", "coordinates": [ 37.5482764, 55.8398322 ] } },
{ "type": "Feature", "properties": { "osm_id": "608550687", "osm_type": "node", "osm_version": "37", "osm_timestamp": "2023-09-17T00:03:31Z", "osm_uid": "461130", "osm_user": "Fizzie-DWG", "osm_changeset": "141362330", "highway": "bus_stop", "description": null, "name": "Педагогический колледж", "title": null, "routes": { }, "peak_frequency": null, "id": "n608550687", "image": null }, "geometry": { "type": "Point", "coordinates": [ 37.5546505, 55.8422634 ] } },
{ "type": "Feature", "properties": { "osm_id": "608550688", "osm_type": "node", "osm_version": "36", "osm_timestamp": "2023-09-17T00:03:31Z", "osm_uid": "461130", "osm_user": "Fizzie-DWG", "osm_changeset": "141362330", "highway": "bus_stop", "description": null, "name": "Педагогический колледж", "title": null, "routes": { }, "peak_frequency": null, "id": "n608550688", "image": null }, "geometry": { "type": "Point", "coordinates": [ 37.552864, 55.8420201 ] } },
{ "type": "Feature", "properties": { "osm_id": null, "osm_type": null, "osm_version": null, "osm_timestamp": null, "osm_uid": null, "osm_user": null, "osm_changeset": null, "highway": null, "description": null, "name": null, "title": null, "routes": { }, "peak_frequency": null, "id": null, "image": null }, "geometry": { "type": "Point", "coordinates": [ 37.575445269416292, 55.837044620976606 ] } },
{ "type": "Feature", "properties": { "osm_id": "663604332", "osm_type": "node", "osm_version": "37", "osm_timestamp": "2025-05-13T18:39:21Z", "osm_uid": "5642897", "osm_user": "Travieso", "osm_changeset": "166217559", "highway": "bus_stop", "description": null, "name": "Тимирязевская академия", "title": null, "routes": { }, "peak_frequency": null, "id": "n663604332", "image": null }, "geometry": { "type": "Point", "coordinates": [ 37.5499225, 55.8338486 ] } },
{ "type": "Feature", "properties": { "osm_id": "663604333", "osm_type": "node", "osm_version": "36", "osm_timestamp": "2025-05-13T18:37:32Z", "osm_uid": "5642897", "osm_user": "Travieso", "osm_changeset": "166217559", "highway": "bus_stop", "description": null, "name": "Тимирязевская академия", "title": null, "routes": { }, "peak_frequency": null, "id": "n663604333", "image": null }, "geometry": { "type": "Point", "coordinates": [ 37.5499654, 55.8333635 ] } },
{ "type": "Feature", "properties": { "osm_id": "1591082084", "osm_type": "node", "osm_version": "39", "osm_timestamp": "2025-03-15T18:02:17Z", "osm_uid": "2055718", "osm_user": "Bobropiton", "osm_changeset": "163661813", "highway": "bus_stop", "description": null, "name": "Центр гидротехники и мелиорации", "title": null, "routes": { }, "peak_frequency": null, "id": "n1591082084", "image": null }, "geometry": { "type": "Point", "coordinates": [ 37.5450599, 55.8386235 ] } },
{ "type": "Feature", "properties": { "osm_id": "1715724189", "osm_type": "node", "osm_version": "34", "osm_timestamp": "2025-05-13T19:42:44Z", "osm_uid": "5642897", "osm_user": "Travieso", "osm_changeset": "166221062", "highway": "bus_stop", "description": null, "name": "Михалковская улица", "title": null, "routes": { }, "peak_frequency": null, "id": "n1715724189", "image": null }, "geometry": { "type": "Point", "coordinates": [ 37.5404629, 55.8369539 ] } },
{ "type": "Feature", "properties": { "osm_id": "1814537517", "osm_type": "node", "osm_version": "36", "osm_timestamp": "2023-09-17T00:03:31Z", "osm_uid": "461130", "osm_user": "Fizzie-DWG", "osm_changeset": "141362330", "highway": "bus_stop", "description": null, "name": "Метро «Петровско-Разумовская»", "title": null, "routes": { }, "peak_frequency": null, "id": "n1814537517", "image": null }, "geometry": { "type": "Point", "coordinates": [ 37.5758327, 55.8370929 ] } },
{ "type": "Feature", "properties": { "osm_id": "1955880758", "osm_type": "node", "osm_version": "38", "osm_timestamp": "2023-09-17T00:03:31Z", "osm_uid": "461130", "osm_user": "Fizzie-DWG", "osm_changeset": "141362330", "highway": "bus_stop", "description": null, "name": "Метро «Петровско-Разумовская»", "title": null, "routes": { }, "peak_frequency": null, "id": "n1955880758", "image": null }, "geometry": { "type": "Point", "coordinates": [ 37.5757097, 55.8372119 ] } },
{ "type": "Feature", "properties": { "osm_id": "1955880761", "osm_type": "node", "osm_version": "36", "osm_timestamp": "2023-09-17T00:03:31Z", "osm_uid": "461130", "osm_user": "Fizzie-DWG", "osm_changeset": "141362330", "highway": "bus_stop", "description": null, "name": "Метро «Петровско-Разумовская»", "title": null, "routes": { }, "peak_frequency": null, "id": "n1955880761", "image": null }, "geometry": { "type": "Point", "coordinates": [ 37.57539552863004, 55.836874490157278 ] } },
{ "type": "Feature", "properties": { "osm_id": "2310316540", "osm_type": "node", "osm_version": "44", "osm_timestamp": "2023-09-17T00:03:31Z", "osm_uid": "461130", "osm_user": "Fizzie-DWG", "osm_changeset": "141362330", "highway": "bus_stop", "description": "автобус 24;76;85: остановка по требованию", "name": "Ботаническая улица, 33", "title": null, "routes": { }, "peak_frequency": null, "id": "n2310316540", "image": null }, "geometry": { "type": "Point", "coordinates": [ 37.5892924, 55.8397852 ] } },
{ "type": "Feature", "properties": { "osm_id": "2621298299", "osm_type": "node", "osm_version": "31", "osm_timestamp": "2023-09-17T00:03:31Z", "osm_uid": "461130", "osm_user": "Fizzie-DWG", "osm_changeset": "141362330", "highway": "bus_stop", "description": null, "name": "Марфино", "title": null, "routes": { }, "peak_frequency": null, "id": "n2621298299", "image": null }, "geometry": { "type": "Point", "coordinates": [ 37.5916702, 55.833453 ] } },
{ "type": "Feature", "properties": { "osm_id": "2782089104", "osm_type": "node", "osm_version": "33", "osm_timestamp": "2023-09-17T00:03:31Z", "osm_uid": "461130", "osm_user": "Fizzie-DWG", "osm_changeset": "141362330", "highway": "bus_stop", "description": null, "name": "Метро «Петровско-Разумовская»", "title": null, "routes": { }, "peak_frequency": null, "id": "n2782089104", "image": null }, "geometry": { "type": "Point", "coordinates": [ 37.5757944, 55.8383543 ] } },
{ "type": "Feature", "properties": { "osm_id": "2818471435", "osm_type": "node", "osm_version": "36", "osm_timestamp": "2023-09-17T00:03:31Z", "osm_uid": "461130", "osm_user": "Fizzie-DWG", "osm_changeset": "141362330", "highway": "bus_stop", "description": null, "name": "Дмитровское шоссе, 29", "title": null, "routes": { }, "peak_frequency": null, "id": "n2818471435", "image": null }, "geometry": { "type": "Point", "coordinates": [ 37.5724793, 55.8285736 ] } },
{ "type": "Feature", "properties": { "osm_id": "2818471437", "osm_type": "node", "osm_version": "34", "osm_timestamp": "2023-09-17T00:03:31Z", "osm_uid": "461130", "osm_user": "Fizzie-DWG", "osm_changeset": "141362330", "highway": "bus_stop", "description": null, "name": "Метро «Петровско-Разумовская»", "title": null, "routes": { }, "peak_frequency": null, "id": "n2818471437", "image": null }, "geometry": { "type": "Point", "coordinates": [ 37.5724979, 55.8340032 ] } },
{ "type": "Feature", "properties": { "osm_id": "2818471438", "osm_type": "node", "osm_version": "35", "osm_timestamp": "2023-09-17T00:03:31Z", "osm_uid": "461130", "osm_user": "Fizzie-DWG", "osm_changeset": "141362330", "highway": "bus_stop", "description": null, "name": "Метро «Петровско-Разумовская»", "title": null, "routes": { }, "peak_frequency": null, "id": "n2818471438", "image": null }, "geometry": { "type": "Point", "coordinates": [ 37.573196, 55.8334475 ] } },
{ "type": "Feature", "properties": { "osm_id": "3687742174", "osm_type": "node", "osm_version": "35", "osm_timestamp": "2023-09-17T00:03:31Z", "osm_uid": "461130", "osm_user": "Fizzie-DWG", "osm_changeset": "141362330", "highway": "bus_stop", "description": null, "name": "Большая Академическая улица", "title": null, "routes": { }, "peak_frequency": null, "id": "n3687742174", "image": null }, "geometry": { "type": "Point", "coordinates": [ 37.5378097, 55.8368698 ] } },
{ "type": "Feature", "properties": { "osm_id": "4508526697", "osm_type": "node", "osm_version": "36", "osm_timestamp": "2023-09-17T00:03:31Z", "osm_uid": "461130", "osm_user": "Fizzie-DWG", "osm_changeset": "141362330", "highway": "bus_stop", "description": null, "name": "Метро «Петровско-Разумовская»", "title": null, "routes": { }, "peak_frequency": null, "id": "n4508526697", "image": null }, "geometry": { "type": "Point", "coordinates": [ 37.5754869, 55.8372391 ] } },
{ "type": "Feature", "properties": { "osm_id": "6041128686", "osm_type": "node", "osm_version": "34", "osm_timestamp": "2025-03-15T18:02:17Z", "osm_uid": "2055718", "osm_user": "Bobropiton", "osm_changeset": "163661813", "highway": "bus_stop", "description": null, "name": "Центр гидротехники и мелиорации", "title": null, "routes": { }, "peak_frequency": null, "id": "n6041128686", "image": null }, "geometry": { "type": "Point", "coordinates": [ 37.544913, 55.8390411 ] } },
{ "type": "Feature", "properties": { "osm_id": "6132114699", "osm_type": "node", "osm_version": "33", "osm_timestamp": "2023-09-17T00:03:31Z", "osm_uid": "461130", "osm_user": "Fizzie-DWG", "osm_changeset": "141362330", "highway": "bus_stop", "description": null, "name": "Метро «Петровско-Разумовская»", "title": null, "routes": { }, "peak_frequency": null, "id": "n6132114699", "image": null }, "geometry": { "type": "Point", "coordinates": [ 37.5725221, 55.8327706 ] } },
{ "type": "Feature", "properties": { "osm_id": "6240555226", "osm_type": "node", "osm_version": "31", "osm_timestamp": "2023-09-17T00:03:31Z", "osm_uid": "461130", "osm_user": "Fizzie-DWG", "osm_changeset": "141362330", "highway": "bus_stop", "description": null, "name": "Михалковская улица", "title": null, "routes": { }, "peak_frequency": null, "id": "n6240555226", "image": null }, "geometry": { "type": "Point", "coordinates": [ 37.5394088, 55.8371146 ] } },
{ "type": "Feature", "properties": { "osm_id": "7877373769", "osm_type": "node", "osm_version": "30", "osm_timestamp": "2025-05-13T18:38:49Z", "osm_uid": "5642897", "osm_user": "Travieso", "osm_changeset": "166217559", "highway": "bus_stop", "description": null, "name": "Политехнический университет", "title": null, "routes": { }, "peak_frequency": null, "id": "n7877373769", "image": null }, "geometry": { "type": "Point", "coordinates": [ 37.5420731, 55.8356696 ] } },
{ "type": "Feature", "properties": { "osm_id": "10771250343", "osm_type": "node", "osm_version": "10", "osm_timestamp": "2025-05-13T18:38:44Z", "osm_uid": "5642897", "osm_user": "Travieso", "osm_changeset": "166217559", "highway": "bus_stop", "description": null, "name": "Политехнический университет", "title": null, "routes": { }, "peak_frequency": null, "id": "n10771250343", "image": null }, "geometry": { "type": "Point", "coordinates": [ 37.5430624, 55.8352588 ] } },
{ "type": "Feature", "properties": { "osm_id": "10771250385", "osm_type": "node", "osm_version": "17", "osm_timestamp": "2024-04-20T08:02:45Z", "osm_uid": "371263", "osm_user": "augxcgrwxo", "osm_changeset": "150250358", "highway": "bus_stop", "description": null, "name": "Пасечная улица", "title": null, "routes": { }, "peak_frequency": null, "id": "n10771250385", "image": null }, "geometry": { "type": "Point", "coordinates": [ 37.5527603, 55.8298555 ] } },
{ "type": "Feature", "properties": { "osm_id": "10771250387", "osm_type": "node", "osm_version": "14", "osm_timestamp": "2025-05-13T18:35:39Z", "osm_uid": "5642897", "osm_user": "Travieso", "osm_changeset": "166217559", "highway": "bus_stop", "description": null, "name": "Пасечная улица", "title": null, "routes": { }, "peak_frequency": null, "id": "n10771250387", "image": null }, "geometry": { "type": "Point", "coordinates": [ 37.552331397556124, 55.830540354123393 ] } },
{ "type": "Feature", "properties": { "osm_id": "10772935142", "osm_type": "node", "osm_version": "15", "osm_timestamp": "2023-09-16T23:03:43Z", "osm_uid": "3305165", "osm_user": "luisforte", "osm_changeset": "141361395", "highway": "bus_stop", "description": null, "name": "Большая Академическая улица", "title": null, "routes": { }, "peak_frequency": null, "id": "n10772935142", "image": null }, "geometry": { "type": "Point", "coordinates": [ 37.5370955, 55.8367945 ] } }
]
}
